$GPGGA,125546.80,0117.95060235,N,10346.29600954,E,4,24,0.6,61.182,M,4.598,M,1.8,0014*42
$PSAT,FVI,125546.80,1.299176706,103.771600159,65.780,0.002,0.003,0.005,,,,,,,0.01,-0.01,0.00,0.02,-435.038,747.881,2.304,48N,363334.226,143631.529,24,00,4,0,,1.8*10
$GPGGA,125547.00,0117.95060227,N,10346.29601014,E,4,24,0.6,61.184,M,4.598,M,1.0,0014*4A
$PSAT,FVI,125547.00,1.299176705,103.771600169,65.781,0.002,0.003,0.005,,,,,,,0.03,0.01,-0.02,0.03,-435.037,747.881,2.306,48N,363334.227,143631.529,24,00,4,0,,1.0*1D
$GPGGA,125547.20,0117.95060229,N,10346.29601007,E,4,24,0.6,61.190,M,4.598,M,1.2,0014*43
$PSAT,FVI,125547.20,1.299176705,103.771600168,65.788,0.002,0.003,0.005,,,,,,,0.02,-0.02,0.00,0.03,-435.037,747.881,2.312,48N,363334.227,143631.529,24,00,4,0,,1.2*10$GPGGA,125547.40,0117.95060207,N,10346.29601057,E,4,24,0.6,61.193,M,4.598,M,1.4,0014*49
$PSAT,FVI,125547.40,1.299176701,103.771600176,65.791,0.002,0.003,0.005,,,,,,,0.01,-0.01,-0.00,0.01,-435.036,747.880,2.315,48N,363334.228,143631.528,24,00,4,0,,1.4*35
$GPGGA,125547.60,0117.95060292,N,10346.29601043,E,4,24,0.6,61.197,M,4.598,M,1.6,0014*44
$PSAT,FVI,125547.60,1.299176715,103.771600174,65.795,0.002,0.003,0.005,,,,,,,0.00,-0.00,0.02,0.01,-435.036,747.882,2.319,48N,363334.228,143631.530,24,00,4,0,,1.6*1E
$GPGGA,125547.80,0117.95060271,N,10346.29601082,E,4,24,0.6,61.196,M,4.598,M,1.8,0014*45
$PSAT,FVI,125547.80,1.299176712,103.771600180,65.794,0.002,0.003,0.005,,,,,,,0.00,-0.01,-0.02,0.02,-435.036,747.881,2.319,48N,363334.229,143631.529,24,00,4,0,,1.8*36$GPGGA,125548.00,0117.95060294,N,10346.29601047,E,4,24,0.6,61.194,M,4.598,M,1.0,0014*4A
$PSAT,FVI,125548.00,1.299176716,103.771600175,65.792,0.002,0.003,0.005,,,,,,,-0.01,-0.01,0.01,0.02,-435.036,747.882,2.317,48N,363334.228,143631.530,24,00,4,0,,1.0*37
$GPGGA,125548.20,0117.95060200,N,10346.29601056,E,4,24,0.6,61.192,M,4.598,M,1.2,0014*41
$PSAT,FVI,125548.20,1.299176700,103.771600176,65.790,0.002,0.003,0.005,,,,,,,-0.00,0.01,-0.00,0.01,-435.036,747.880,2.315,48N,363334.228,143631.528,24,00,4,0,,1.2*3B
$GPGGA,125548.40,0117.95060216,N,10346.29601040,E,4,24,0.6,61.189,M,4.598,M,1.4,0014*4B
$PSAT,FVI,125548.40,1.299176703,103.771600173,65.787,0.002,0.003,0.005,,,,,,,-0.02,-0.01,-0.01,0.02,-435.036,747.880,2.311,48N,363334.228,143631.528,24,00,4,0,,1.4*12
$GPGGA,125548.60,0117.95060238,N,10346.29601034,E,4,24,0.6,61.188,M,4.598,M,1.6,0014*45
$PSAT,FVI,125548.60,1.299176706,103.771600172,65.786,0.002,0.003,0.005,,,,,,,0.01,-0.03,0.01,0.04,-435.036,747.881,2.311,48N,363334.228,143631.529,24,00,4,0,,1.6*10
$GPGGA,125548.80,0117.95060287,N,10346.29601003,E,4,24,0.6,61.189,M,4.598,M,1.8,0014*44
$PSAT,FVI,125548.80,1.299176714,103.771600167,65.787,0.002,0.003,0.005,,,,,,,-0.01,0.00,-0.00,0.01,-435.037,747.882,2.312,48N,363334.227,143631.530,24,00,4,0,,1.8*3A
$GPGGA,125549.00,0117.95060309,N,10346.29601011,E,4,24,0.6,61.188,M,4.598,M,1.0,0014*40
$PSAT,FVI,125549.00,1.299176718,103.771600168,65.786,0.002,0.003,0.005,,,,,,,0.00,-0.00,0.01,0.00,-435.037,747.882,2.311,48N,363334.227,143631.530,24,00,4,0,,1.0*16
$GPGGA,125549.20,0117.95060381,N,10346.29601013,E,4,24,0.6,61.189,M,4.598,M,1.2,0014*43
$PSAT,FVI,125549.20,1.299176730,103.771600169,65.787,0.002,0.003,0.005,,,,,,,-0.00,-0.02,0.01,0.02,-435.037,747.883,2.311,48N,363334.227,143631.531,24,00,4,0,,1.2*31
$GPGGA,125549.40,0117.95060413,N,10346.29600997,E,4,24,0.6,61.187,M,4.598,M,1.4,0014*45
$PSAT,FVI,125549.40,1.299176736,103.771600166,65.785,0.002,0.003,0.005,,,,,,,-0.03,-0.00,0.00,0.03,-435.037,747.884,2.310,48N,363334.227,143631.532,24,00,4,0,,1.4*3E
$GPGGA,125549.60,0117.95060361,N,10346.29601015,E,4,24,0.6,61.185,M,4.598,M,1.6,0014*47
$PSAT,FVI,125549.60,1.299176727,103.771600169,65.783,0.002,0.003,0.005,,,,,,,0.00,0.00,-0.01,0.00,-435.037,747.883,2.307,48N,363334.227,143631.531,24,00,4,0,,1.6*19
$GPGGA,125549.80,0117.95060319,N,10346.29601017,E,4,24,0.6,61.181,M,4.598,M,1.8,0014*4E
$PSAT,FVI,125549.80,1.299176720,103.771600169,65.779,0.002,0.003,0.005,,,,,,,-0.02,-0.01,-0.01,0.02,-435.037,747.882,2.303,48N,363334.227,143631.530,24,00,4,0,,1.8*1E
$GPGGA,125550.00,0117.95060274,N,10346.29601062,E,4,24,0.6,61.179,M,4.598,M,1.0,0014*49
$PSAT,FVI,125550.00,1.299176712,103.771600177,65.777,0.002,0.003,0.005,,,,,,,0.01,0.01,-0.01,0.01,-435.036,747.881,2.301,48N,363334.228,143631.530,24,00,4,0,,1.0*19
$GPGGA,125550.20,0117.95060217,N,10346.29601069,E,4,24,0.6,61.179,M,4.598,M,1.2,0014*47
$PSAT,FVI,125550.20,1.299176703,103.771600178,65.777,0.002,0.003,0.005,,,,,,,-0.00,0.01,-0.00,0.01,-435.036,747.880,2.301,48N,363334.228,143631.528,24,00,4,0,,1.2*33
$GPGGA,125550.40,0117.95060193,N,10346.29601085,E,4,24,0.6,61.178,M,4.598,M,1.4,0014*4B
$PSAT,FVI,125550.40,1.299176699,103.771600181,65.776,0.002,0.003,0.005,,,,,,,-0.01,-0.03,-0.02,0.03,-435.036,747.880,2.300,48N,363334.229,143631.528,24,00,4,0,,1.4*18
$GPGGA,125550.60,0117.95060200,N,10346.29601122,E,4,24,0.6,61.178,M,4.598,M,1.6,0014*4E
$PSAT,FVI,125550.60,1.299176700,103.771600187,65.776,0.002,0.003,0.005,,,,,,,-0.01,0.01,-0.00,0.02,-435.035,747.880,2.301,48N,363334.229,143631.528,24,00,4,0,,1.6*31
$GPGGA,125550.80,0117.95060131,N,10346.29601127,E,4,24,0.6,61.175,M,4.598,M,1.8,0014*47
$PSAT,FVI,125550.80,1.299176689,103.771600188,65.773,0.002,0.003,0.005,,,,,,,-0.02,-0.02,-0.02,0.02,-435.035,747.879,2.297,48N,363334.229,143631.527,24,00,4,0,,1.8*13
$GPGGA,125551.00,0117.95060161,N,10346.29601089,E,4,24,0.6,61.178,M,4.598,M,1.0,0014*4B
$PSAT,FVI,125551.00,1.299176693,103.771600181,65.776,0.002,0.003,0.005,,,,,,,-0.02,0.02,0.01,0.02,-435.035,747.879,2.300,48N,363334.229,143631.527,24,00,4,0,,1.0*19
$GPGGA,125551.20,0117.95060094,N,10346.29601106,E,4,24,0.6,61.178,M,4.598,M,1.2,0014*46
$PSAT,FVI,125551.20,1.299176682,103.771600184,65.776,0.002,0.003,0.005,,,,,,,-0.00,0.00,-0.01,0.00,-435.035,747.878,2.300,48N,363334.229,143631.526,24,00,4,0,,1.2*33
$GPGGA,125551.40,0117.95060134,N,10346.29601106,E,4,24,0.6,61.181,M,4.598,M,1.4,0014*4B
$PSAT,FVI,125551.40,1.299176689,103.771600184,65.779,0.002,0.003,0.005,,,,,,,-0.00,-0.00,0.00,0.00,-435.035,747.879,2.304,48N,363334.229,143631.527,24,00,4,0,,1.4*32
$GPGGA,125551.60,0117.95060115,N,10346.29601135,E,4,24,0.6,61.183,M,4.598,M,1.6,0014*4A
$PSAT,FVI,125551.60,1.299176686,103.771600189,65.781,0.002,0.003,0.005,,,,,,,-0.00,-0.02,-0.01,0.02,-435.035,747.878,2.306,48N,363334.230,143631.527,24,00,4,0,,1.6*10
$GPGGA,125551.80,0117.95060128,N,10346.29601115,E,4,24,0.6,61.185,M,4.598,M,0.8,0014*41
$PSAT,FVI,125551.80,1.299176688,103.771600186,65.783,0.002,0.003,0.005,,,,,,,-0.02,-0.02,0.01,0.03,-435.035,747.879,2.308,48N,363334.229,143631.527,24,00,4,0,,0.8*3B
$GPGGA,125552.00,0117.95060117,N,10346.29601149,E,4,24,0.6,61.186,M,4.598,M,1.0,0014*45
$PSAT,FVI,125552.00,1.299176686,103.771600192,65.784,0.002,0.003,0.005,,,,,,,-0.00,-0.02,0.00,0.02,-435.034,747.879,2.308,48N,363334.230,143631.527,24,00,4,0,,1.0*3E
$GPGGA,125552.20,0117.95060123,N,10346.29601124,E,4,24,0.6,61.190,M,4.598,M,1.2,0014*4E
$PSAT,FVI,125552.20,1.299176687,103.771600187,65.788,0.002,0.003,0.005,,,,,,,0.01,0.04,0.02,0.04,-435.035,747.879,2.312,48N,363334.229,143631.527,24,00,4,0,,1.2*36
$GPGGA,125552.40,0117.95060135,N,10346.29601123,E,4,24,0.6,61.193,M,4.598,M,1.4,0014*4D
$PSAT,FVI,125552.40,1.299176689,103.771600187,65.791,0.002,0.003,0.005,,,,,,,-0.01,0.01,0.02,0.01,-435.035,747.879,2.315,48N,363334.229,143631.527,24,00,4,0,,1.4*1A$GPGGA,125552.60,0117.95060118,N,10346.29601090,E,4,24,0.6,61.192,M,4.598,M,1.6,0014*4A
$PSAT,FVI,125552.60,1.299176686,103.771600182,65.790,0.002,0.003,0.005,,,,,,,-0.03,0.00,-0.01,0.03,-435.035,747.879,2.315,48N,363334.229,143631.527,24,00,4,0,,1.6*3E
$GPGGA,125552.80,0117.95060147,N,10346.29601061,E,4,24,0.6,61.195,M,4.598,M,0.8,0014*48
$PSAT,FVI,125552.80,1.299176691,103.771600177,65.793,0.002,0.003,0.005,,,,,,,0.03,-0.00,0.02,0.03,-435.036,747.879,2.317,48N,363334.228,143631.527,24,00,4,0,,0.8*1E
$GPGGA,125553.00,0117.95060133,N,10346.29601103,E,4,24,0.6,61.199,M,4.598,M,1.0,0014*42
$PSAT,FVI,125553.00,1.299176689,103.771600184,65.797,0.002,0.003,0.005,,,,,,,0.01,-0.01,0.02,0.02,-435.035,747.879,2.321,48N,363334.229,143631.527,24,00,4,0,,1.0*1A
$GPGGA,125553.20,0117.95060186,N,10346.29601011,E,4,24,0.6,61.198,M,4.598,M,1.2,0014*4F
$PSAT,FVI,125553.20,1.299176698,103.771600168,65.796,0.002,0.003,0.005,,,,,,,0.03,-0.01,-0.00,0.03,-435.037,747.880,2.320,48N,363334.227,143631.528,24,00,4,0,,1.2*31
$GPGGA,125553.40,0117.95060157,N,10346.29601001,E,4,24,0.6,61.198,M,4.598,M,1.4,0014*42
$PSAT,FVI,125553.40,1.299176693,103.771600167,65.796,0.002,0.003,0.005,,,,,,,-0.00,0.00,0.01,0.00,-435.037,747.879,2.320,48N,363334.227,143631.527,24,00,4,0,,1.4*11
$GPGGA,125553.60,0117.95060120,N,10346.29601007,E,4,24,0.6,61.196,M,4.598,M,1.6,0014*4A
$PSAT,FVI,125553.60,1.299176687,103.771600168,65.794,0.002,0.003,0.005,,,,,,,0.02,-0.00,-0.01,0.02,-435.037,747.879,2.319,48N,363334.227,143631.527,24,00,4,0,,1.6*3E
$GPGGA,125553.80,0117.95060101,N,10346.29600933,E,4,24,0.6,61.195,M,4.598,M,1.8,0014*45
$PSAT,FVI,125553.80,1.299176684,103.771600156,65.793,0.002,0.003,0.005,,,,,,,0.00,-0.02,-0.01,0.02,-435.038,747.878,2.317,48N,363334.226,143631.526,24,00,4,0,,1.8*37
$GPGGA,125554.00,0117.95060164,N,10346.29600920,E,4,24,0.6,61.197,M,4.598,M,2.0,0014*42
$PSAT,FVI,125554.00,1.299176694,103.771600153,65.795,0.002,0.003,0.005,,,,,,,0.01,0.02,0.01,0.02,-435.039,747.879,2.319,48N,363334.226,143631.527,24,00,4,0,,2.0*3F
$GPGGA,125554.20,0117.95060169,N,10346.29600890,E,4,24,0.6,61.196,M,4.598,M,1.2,0014*47
$PSAT,FVI,125554.20,1.299176695,103.771600148,65.794,0.002,0.003,0.005,,,,,,,-0.01,0.01,0.00,0.01,-435.039,747.879,2.318,48N,363334.225,143631.528,24,00,4,0,,1.2*17
$GPGGA,125554.40,0117.95060164,N,10346.29600804,E,4,24,0.6,61.195,M,4.598,M,1.4,0014*44$PSAT,FVI,125554.40,1.299176694,103.771600134,65.793,0.002,0.003,0.005,,,,,,,0.02,-0.01,-0.00,0.03,-435.041,747.879,2.318,48N,363334.223,143631.527,24,00,4,0,,1.4*30
$GPGGA,125554.60,0117.95060108,N,10346.29600774,E,4,24,0.6,61.195,M,4.598,M,1.6,0014*46
$PSAT,FVI,125554.60,1.299176685,103.771600129,65.792,0.002,0.003,0.005,,,,,,,-0.00,0.01,0.01,0.01,-435.041,747.878,2.317,48N,363334.223,143631.526,24,00,4,0,,1.6*1E
$GPGGA,125554.80,0117.95060202,N,10346.29600842,E,4,24,0.6,61.194,M,4.598,M,1.8,0014*44
$PSAT,FVI,125554.80,1.299176700,103.771600140,65.792,0.002,0.003,0.005,,,,,,,-0.01,-0.01,0.00,0.01,-435.040,747.880,2.316,48N,363334.224,143631.528,24,00,4,0,,1.8*3E
$GPGGA,125555.00,0117.95060223,N,10346.29600813,E,4,24,0.6,61.192,M,4.598,M,1.0,0014*44
$PSAT,FVI,125555.00,1.299176704,103.771600136,65.790,0.002,0.003,0.005,,,,,,,0.03,-0.00,0.00,0.03,-435.041,747.880,2.315,48N,363334.224,143631.529,24,00,4,0,,1.0*17
$GPGGA,125555.20,0117.95060291,N,10346.29600955,E,4,24,0.6,61.191,M,4.598,M,1.2,0014*4D
$PSAT,FVI,125555.20,1.299176715,103.771600159,65.789,0.002,0.003,0.005,,,,,,,0.02,0.02,0.01,0.03,-435.038,747.882,2.313,48N,363334.226,143631.530,24,00,4,0,,1.2*39$GPGGA,125555.40,0117.95060272,N,10346.29600985,E,4,24,0.6,61.191,M,4.598,M,1.4,0014*4D
$PSAT,FVI,125555.40,1.299176712,103.771600164,65.789,0.002,0.003,0.005,,,,,,,0.00,-0.00,-0.00,0.00,-435.037,747.881,2.314,48N,363334.227,143631.529,24,00,4,0,,1.4*30
$GPGGA,125555.60,0117.95060291,N,10346.29601019,E,4,24,0.6,61.190,M,4.598,M,1.6,0014*4C
$PSAT,FVI,125555.60,1.299176715,103.771600170,65.788,0.002,0.003,0.005,,,,,,,-0.01,0.01,-0.00,0.01,-435.037,747.882,2.312,48N,363334.227,143631.530,24,00,4,0,,1.6*3F
$GPGGA,125555.80,0117.95060288,N,10346.29601048,E,4,24,0.6,61.187,M,4.598,M,1.8,0014*46
$PSAT,FVI,125555.80,1.299176715,103.771600175,65.785,0.002,0.003,0.005,,,,,,,0.02,-0.02,-0.01,0.03,-435.036,747.882,2.309,48N,363334.228,143631.530,24,00,4,0,,1.8*30
$GPGGA,125556.00,0117.95060286,N,10346.29601041,E,4,24,0.6,61.188,M,4.598,M,1.0,0014*4D
$PSAT,FVI,125556.00,1.299176714,103.771600174,65.786,0.002,0.003,0.005,,,,,,,-0.02,0.02,0.00,0.03,-435.036,747.882,2.310,48N,363334.228,143631.530,24,00,4,0,,1.0*14
$GPGGA,125556.20,0117.95060257,N,10346.29601075,E,4,24,0.6,61.191,M,4.598,M,1.2,0014*4E
$PSAT,FVI,125556.20,1.299176709,103.771600179,65.789,0.002,0.003,0.005,,,,,,,0.01,-0.02,0.04,0.02,-435.036,747.881,2.313,48N,363334.228,143631.529,24,00,4,0,,1.2*14
$GPGGA,125556.40,0117.95060248,N,10346.29601049,E,4,24,0.6,61.188,M,4.598,M,1.4,0014*47$PSAT,FVI,125556.40,1.299176708,103.771600175,65.785,0.002,0.003,0.005,,,,,,,-0.00,-0.04,-0.02,0.04,-435.036,747.881,2.310,48N,363334.228,143631.529,24,00,4,0,,1.4*11
$GPGGA,125556.60,0117.95060290,N,10346.29601037,E,4,24,0.6,61.188,M,4.598,M,1.6,0014*4B
$PSAT,FVI,125556.60,1.299176715,103.771600173,65.786,0.002,0.003,0.005,,,,,,,-0.01,-0.05,-0.01,0.05,-435.036,747.882,2.311,48N,363334.228,143631.530,24,00,4,0,,1.6*10
$GPGGA,125556.80,0117.95060333,N,10346.29601100,E,4,24,0.6,61.189,M,4.598,M,1.8,0014*47
$PSAT,FVI,125556.80,1.299176722,103.771600183,65.787,0.002,0.003,0.005,,,,,,,0.00,0.02,-0.00,0.02,-435.035,747.882,2.311,48N,363334.229,143631.531,24,00,4,0,,1.8*19
$GPGGA,125557.00,0117.95060276,N,10346.29601038,E,4,24,0.6,61.191,M,4.598,M,1.0,0014*45$PSAT,FVI,125557.00,1.299176713,103.771600173,65.789,0.002,0.003,0.005,,,,,,,-0.01,-0.00,-0.01,0.01,-435.036,747.881,2.313,48N,363334.228,143631.530,24,00,4,0,,1.0*18
$GPGGA,125557.20,0117.95060333,N,10346.29600970,E,4,24,0.6,61.192,M,4.598,M,1.2,0014*42
$PSAT,FVI,125557.20,1.299176722,103.771600162,65.790,0.002,0.003,0.005,,,,,,,-0.01,-0.00,-0.00,0.01,-435.038,747.882,2.314,48N,363334.226,143631.531,24,00,4,0,,1.2*16
$GPGGA,125557.40,0117.95060310,N,10346.29600997,E,4,24,0.6,61.191,M,4.598,M,1.4,0014*49
$PSAT,FVI,125557.40,1.299176718,103.771600166,65.789,0.002,0.003,0.005,,,,,,,-0.00,-0.01,-0.01,0.01,-435.037,747.882,2.314,48N,363334.227,143631.530,24,00,4,0,,1.4*1D
$GPGGA,125557.60,0117.95060330,N,10346.29600989,E,4,24,0.6,61.193,M,4.598,M,1.6,0014*46
$PSAT,FVI,125557.60,1.299176722,103.771600165,65.791,0.002,0.003,0.005,,,,,,,0.03,-0.01,0.01,0.03,-435.037,747.882,2.315,48N,363334.227,143631.531,24,00,4,0,,1.6*1F$GPGGA,125557.80,0117.95060248,N,10346.29600972,E,4,24,0.6,61.190,M,4.598,M,1.8,0014*4F
$PSAT,FVI,125557.80,1.299176708,103.771600162,65.788,0.002,0.003,0.005,,,,,,,0.01,0.01,-0.01,0.01,-435.038,747.881,2.313,48N,363334.227,143631.529,24,00,4,0,,1.8*1B
$GPGGA,125558.00,0117.95060220,N,10346.29600949,E,4,24,0.6,61.190,M,4.598,M,1.0,0014*46
$PSAT,FVI,125558.00,1.299176703,103.771600158,65.788,0.002,0.003,0.005,,,,,,,-0.03,0.00,-0.01,0.03,-435.038,747.880,2.313,48N,363334.226,143631.529,24,00,4,0,,1.0*3A
$GPGGA,125558.20,0117.95060172,N,10346.29600922,E,4,24,0.6,61.190,M,4.598,M,1.2,0014*4F
$PSAT,FVI,125558.20,1.299176695,103.771600154,65.788,0.002,0.003,0.005,,,,,,,0.01,-0.01,-0.02,0.01,-435.039,747.880,2.312,48N,363334.226,143631.528,24,00,4,0,,1.2*3B$GPGGA,125558.40,0117.95060143,N,10346.29601027,E,4,24,0.6,61.188,M,4.598,M,1.4,0014*49
$PSAT,FVI,125558.40,1.299176690,103.771600171,65.786,0.002,0.003,0.005,,,,,,,-0.00,-0.00,0.00,0.01,-435.037,747.879,2.310,48N,363334.228,143631.527,24,00,4,0,,1.4*3E
$GPGGA,125558.60,0117.95060075,N,10346.29601038,E,4,24,0.6,61.186,M,4.598,M,1.6,0014*4D
$PSAT,FVI,125558.60,1.299176679,103.771600173,65.784,0.002,0.003,0.005,,,,,,,-0.01,0.00,-0.01,0.01,-435.036,747.878,2.308,48N,363334.228,143631.526,24,00,4,0,,1.6*31
$GPGGA,125558.80,0117.95060134,N,10346.29601134,E,4,24,0.6,61.185,M,4.598,M,1.8,0014*47
$PSAT,FVI,125558.80,1.299176689,103.771600189,65.783,0.002,0.003,0.005,,,,,,,0.01,0.03,0.00,0.03,-435.035,747.879,2.308,48N,363334.230,143631.527,24,00,4,0,,1.8*36
$GPGGA,125559.00,0117.95060121,N,10346.29601200,E,4,24,0.6,61.186,M,4.598,M,1.0,0014*45
$PSAT,FVI,125559.00,1.299176687,103.771600200,65.784,0.002,0.003,0.005,,,,,,,-0.02,0.02,0.02,0.03,-435.033,747.879,2.308,48N,363334.231,143631.527,24,00,4,0,,1.0*16
$GPGGA,125559.20,0117.95060156,N,10346.29601148,E,4,24,0.6,61.182,M,4.598,M,1.2,0014*4E
$PSAT,FVI,125559.20,1.299176693,103.771600191,65.780,0.002,0.003,0.005,,,,,,,-0.01,-0.00,-0.01,0.01,-435.034,747.879,2.304,48N,363334.230,143631.527,24,00,4,0,,1.2*16
$GPGGA,125559.40,0117.95060193,N,10346.29601192,E,4,24,0.6,61.183,M,4.598,M,1.4,0014*41
$PSAT,FVI,125559.40,1.299176699,103.771600199,65.781,0.002,0.003,0.005,,,,,,,-0.01,0.01,0.00,0.01,-435.034,747.880,2.305,48N,363334.231,143631.528,24,00,4,0,,1.4*1C
$GPGGA,125559.60,0117.95060147,N,10346.29601189,E,4,24,0.6,61.182,M,4.598,M,1.6,0014*43
$PSAT,FVI,125559.60,1.299176691,103.771600198,65.780,0.002,0.003,0.005,,,,,,,0.00,0.01,-0.01,0.01,-435.034,747.879,2.305,48N,363334.231,143631.527,24,00,4,0,,1.6*1D
$GPGGA,125559.80,0117.95060158,N,10346.29601148,E,4,24,0.6,61.183,M,4.598,M,0.8,0014*40
$PSAT,FVI,125559.80,1.299176693,103.771600191,65.781,0.002,0.003,0.005,,,,,,,-0.00,0.03,0.01,0.03,-435.034,747.879,2.305,48N,363334.230,143631.527,24,00,4,0,,0.8*17
$GPGGA,125600.00,0117.95060163,N,10346.29601057,E,4,24,0.6,61.184,M,4.598,M,1.0,0014*4E
$PSAT,FVI,125600.00,1.299176694,103.771600176,65.782,0.002,0.003,0.005,,,,,,,0.01,0.01,0.01,0.01,-435.036,747.879,2.306,48N,363334.228,143631.527,24,00,4,0,,1.0*30$GPGGA,125600.20,0117.95060155,N,10346.29600999,E,4,24,0.6,61.182,M,4.598,M,1.2,0014*47
$PSAT,FVI,125600.20,1.299176692,103.771600166,65.780,0.002,0.003,0.005,,,,,,,0.01,0.00,-0.01,0.01,-435.037,747.879,2.304,48N,363334.227,143631.527,24,00,4,0,,1.2*15
$GPGGA,125600.40,0117.95060152,N,10346.29600929,E,4,24,0.6,61.180,M,4.598,M,1.4,0014*49
$PSAT,FVI,125600.40,1.299176692,103.771600155,65.778,0.002,0.003,0.005,,,,,,,-0.00,-0.01,-0.01,0.01,-435.038,747.879,2.302,48N,363334.226,143631.527,24,00,4,0,,1.4*1A
$GPGGA,125600.60,0117.95060119,N,10346.29600902,E,4,24,0.6,61.181,M,4.598,M,1.6,0014*4E
$PSAT,FVI,125600.60,1.299176686,103.771600150,65.779,0.002,0.003,0.005,,,,,,,-0.02,-0.01,0.02,0.02,-435.039,747.879,2.303,48N,363334.225,143631.527,24,00,4,0,,1.6*37
$GPGGA,125600.80,0117.95060195,N,10346.29600946,E,4,24,0.6,61.181,M,4.598,M,1.8,0014*4A
$PSAT,FVI,125600.80,1.299176699,103.771600158,65.779,0.002,0.003,0.005,,,,,,,0.03,0.01,0.02,0.03,-435.038,747.880,2.303,48N,363334.226,143631.528,24,00,4,0,,1.8*3A$GPGGA,125601.00,0117.95060155,N,10346.29600960,E,4,24,0.6,61.180,M,4.598,M,2.0,0014*41
$PSAT,FVI,125601.00,1.299176692,103.771600160,65.778,0.002,0.003,0.005,,,,,,,-0.02,-0.00,-0.01,0.02,-435.038,747.879,2.302,48N,363334.226,143631.527,24,00,4,0,,2.0*1E
$GPGGA,125601.20,0117.95060208,N,10346.29600889,E,4,24,0.6,61.182,M,4.598,M,1.2,0014*4D
$PSAT,FVI,125601.20,1.299176701,103.771600148,65.780,0.002,0.003,0.005,,,,,,,0.00,0.01,-0.01,0.01,-435.039,747.880,2.305,48N,363334.225,143631.528,24,00,4,0,,1.2*17
$GPGGA,125601.40,0117.95060223,N,10346.29600882,E,4,24,0.6,61.185,M,4.598,M,1.4,0014*48
$PSAT,FVI,125601.40,1.299176704,103.771600147,65.783,0.002,0.003,0.005,,,,,,,0.02,-0.01,0.01,0.02,-435.039,747.880,2.308,48N,363334.225,143631.529,24,00,4,0,,1.4*13
$GPGGA,125601.60,0117.95060286,N,10346.29600837,E,4,24,0.6,61.186,M,4.598,M,1.6,0014*4A
$PSAT,FVI,125601.60,1.299176714,103.771600140,65.784,0.002,0.003,0.005,,,,,,,-0.00,-0.01,0.01,0.01,-435.040,747.882,2.309,48N,363334.224,143631.530,24,00,4,0,,1.6*3A
$GPGGA,125601.80,0117.95060199,N,10346.29600841,E,4,24,0.6,61.187,M,4.598,M,1.8,0014*47
$PSAT,FVI,125601.80,1.299176700,103.771600140,65.785,0.002,0.003,0.005,,,,,,,-0.02,0.00,-0.01,0.02,-435.040,747.880,2.309,48N,363334.224,143631.528,24,00,4,0,,1.8*35
$GPGGA,125602.00,0117.95060198,N,10346.29600889,E,4,24,0.6,61.190,M,4.598,M,2.0,0014*44
$PSAT,FVI,125602.00,1.299176700,103.771600148,65.788,0.002,0.003,0.005,,,,,,,0.00,-0.03,0.01,0.03,-435.039,747.880,2.312,48N,363334.225,143631.528,24,00,4,0,,2.0*18
$GPGGA,125602.20,0117.95060163,N,10346.29600864,E,4,24,0.6,61.192,M,4.598,M,1.2,0014*42
$PSAT,FVI,125602.20,1.299176694,103.771600144,65.790,0.002,0.003,0.005,,,,,,,0.01,0.00,-0.00,0.01,-435.040,747.879,2.315,48N,363334.225,143631.527,24,00,4,0,,1.2*13
$GPGGA,125602.40,0117.95060153,N,10346.29600910,E,4,24,0.6,61.193,M,4.598,M,1.4,0014*42
$PSAT,FVI,125602.40,1.299176692,103.771600152,65.791,0.002,0.003,0.005,,,,,,,-0.00,0.02,0.00,0.02,-435.039,747.879,2.316,48N,363334.225,143631.527,24,00,4,0,,1.4*1E
$GPGGA,125602.60,0117.95060153,N,10346.29600890,E,4,24,0.6,61.195,M,4.598,M,1.6,0014*4D
$PSAT,FVI,125602.60,1.299176692,103.771600148,65.793,0.002,0.003,0.005,,,,,,,0.01,0.01,0.00,0.02,-435.039,747.879,2.318,48N,363334.225,143631.527,24,00,4,0,,1.6*36
$GPGGA,125602.80,0117.95060163,N,10346.29600859,E,4,24,0.6,61.198,M,4.598,M,0.8,0014*47
$PSAT,FVI,125602.80,1.299176694,103.771600143,65.796,0.002,0.003,0.005,,,,,,,-0.01,-0.03,0.02,0.03,-435.040,747.879,2.320,48N,363334.224,143631.527,24,00,4,0,,0.8*3A
$GPGGA,125603.00,0117.95060108,N,10346.29600861,E,4,24,0.6,61.194,M,4.598,M,1.0,0014*4D
$PSAT,FVI,125603.00,1.299176685,103.771600144,65.792,0.002,0.003,0.005,,,,,,,-0.02,-0.01,0.01,0.02,-435.040,747.878,2.316,48N,363334.224,143631.526,24,00,4,0,,1.0*3F
$GPGGA,125603.20,0117.95060136,N,10346.29600855,E,4,24,0.6,61.190,M,4.598,M,1.2,0014*43
$PSAT,FVI,125603.20,1.299176689,103.771600143,65.788,0.002,0.003,0.005,,,,,,,-0.00,0.01,-0.01,0.01,-435.040,747.879,2.312,48N,363334.224,143631.527,24,00,4,0,,1.2*3A$GPGGA,125603.40,0117.95060126,N,10346.29600858,E,4,24,0.6,61.189,M,4.598,M,1.4,0014*47
$PSAT,FVI,125603.40,1.299176688,103.771600143,65.787,0.002,0.003,0.005,,,,,,,-0.00,-0.00,0.00,0.00,-435.040,747.879,2.312,48N,363334.224,143631.527,24,00,4,0,,1.4*35
$GPGGA,125603.60,0117.95060088,N,10346.29600791,E,4,24,0.6,61.188,M,4.598,M,1.6,0014*49
$PSAT,FVI,125603.60,1.299176681,103.771600132,65.786,0.002,0.003,0.005,,,,,,,-0.01,0.02,-0.02,0.02,-435.041,747.878,2.310,48N,363334.223,143631.526,24,00,4,0,,1.6*3C
$GPGGA,125603.80,0117.95060076,N,10346.29600769,E,4,24,0.6,61.187,M,4.598,M,1.8,0014*40
$PSAT,FVI,125603.80,1.299176679,103.771600128,65.785,0.002,0.003,0.005,,,,,,,0.03,-0.02,0.01,0.03,-435.041,747.878,2.309,48N,363334.223,143631.526,24,00,4,0,,1.8*16
$GPGGA,125604.00,0117.95060095,N,10346.29600820,E,4,24,0.6,61.187,M,4.598,M,1.0,0014*48
$PSAT,FVI,125604.00,1.299176682,103.771600137,65.785,0.002,0.003,0.005,,,,,,,0.02,-0.01,0.02,0.02,-435.040,747.878,2.309,48N,363334.224,143631.526,24,00,4,0,,1.0*1D
$GPGGA,125604.20,0117.95060046,N,10346.29600878,E,4,24,0.6,61.184,M,4.598,M,1.2,0014*48
$PSAT,FVI,125604.20,1.299176674,103.771600146,65.782,0.002,0.003,0.005,,,,,,,0.02,0.00,-0.01,0.02,-435.039,747.877,2.306,48N,363334.225,143631.525,24,00,4,0,,1.2*1B
$GPGGA,125604.40,0117.95060117,N,10346.29600987,E,4,24,0.6,61.186,M,4.598,M,1.4,0014*4E
$PSAT,FVI,125604.40,1.299176686,103.771600165,65.784,0.002,0.003,0.005,,,,,,,-0.01,0.01,0.00,0.01,-435.037,747.879,2.308,48N,363334.227,143631.527,24,00,4,0,,1.4*1F
$GPGGA,125604.60,0117.95060114,N,10346.29601031,E,4,24,0.6,61.188,M,4.598,M,1.6,0014*46
$PSAT,FVI,125604.60,1.299176686,103.771600172,65.786,0.002,0.003,0.005,,,,,,,-0.00,-0.02,0.01,0.02,-435.037,747.878,2.310,48N,363334.228,143631.527,24,00,4,0,,1.6*31
$GPGGA,125604.80,0117.95060111,N,10346.29601083,E,4,24,0.6,61.189,M,4.598,M,1.8,0014*4B
$PSAT,FVI,125604.80,1.299176685,103.771600180,65.787,0.002,0.003,0.005,,,,,,,0.02,-0.00,0.01,0.02,-435.036,747.878,2.312,48N,363334.229,143631.527,24,00,4,0,,1.8*11$GPGGA,125605.00,0117.95060127,N,10346.29601118,E,4,24,0.6,61.189,M,4.598,M,1.0,0014*4C
$PSAT,FVI,125605.00,1.299176688,103.771600186,65.787,0.002,0.003,0.005,,,,,,,0.01,0.00,0.00,0.02,-435.035,747.879,2.311,48N,363334.229,143631.527,24,00,4,0,,1.0*35$GPGGA,125605.20,0117.95060185,N,10346.29601129,E,4,24,0.6,61.190,M,4.598,M,1.2,0014*4E
$PSAT,FVI,125605.20,1.299176697,103.771600188,65.788,0.002,0.003,0.005,,,,,,,-0.01,0.01,0.02,0.01,-435.035,747.880,2.312,48N,363334.229,143631.528,24,00,4,0,,1.2*1D
$GPGGA,125605.40,0117.95060150,N,10346.29601174,E,4,24,0.6,61.188,M,4.598,M,1.4,0014*47
$PSAT,FVI,125605.40,1.299176692,103.771600196,65.786,0.002,0.003,0.005,,,,,,,-0.02,0.01,0.00,0.02,-435.034,747.879,2.311,48N,363334.230,143631.527,24,00,4,0,,1.4*18
$GPGGA,125605.60,0117.95060165,N,10346.29601192,E,4,24,0.6,61.189,M,4.598,M,1.6,0014*48
$PSAT,FVI,125605.60,1.299176694,103.771600199,65.787,0.002,0.003,0.005,,,,,,,-0.01,-0.00,0.01,0.01,-435.034,747.879,2.311,48N,363334.231,143631.527,24,00,4,0,,1.6*3C
$GPGGA,125605.80,0117.95060231,N,10346.29601123,E,4,24,0.6,61.189,M,4.598,M,1.8,0014*40
$PSAT,FVI,125605.80,1.299176705,103.771600187,65.787,0.002,0.003,0.005,,,,,,,0.01,-0.01,0.01,0.01,-435.035,747.881,2.311,48N,363334.229,143631.529,24,00,4,0,,1.8*17
$GPGGA,125606.00,0117.95060178,N,10346.29601143,E,4,24,0.6,61.187,M,4.598,M,1.0,0014*45
$PSAT,FVI,125606.00,1.299176696,103.771600190,65.785,0.002,0.003,0.005,,,,,,,-0.03,-0.01,-0.02,0.03,-435.034,747.880,2.310,48N,363334.230,143631.528,24,00,4,0,,1.0*10
$GPGGA,125606.20,0117.95060220,N,10346.29601036,E,4,24,0.6,61.190,M,4.598,M,1.2,0014*4E
$PSAT,FVI,125606.20,1.299176703,103.771600173,65.787,0.002,0.003,0.005,,,,,,,-0.04,0.01,-0.00,0.04,-435.036,747.880,2.312,48N,363334.228,143631.529,24,00,4,0,,1.2*35
$GPGGA,125606.40,0117.95060275,N,10346.29600972,E,4,24,0.6,61.191,M,4.598,M,1.4,0014*47
$PSAT,FVI,125606.40,1.299176713,103.771600162,65.789,0.002,0.003,0.005,,,,,,,0.00,-0.01,0.01,0.01,-435.038,747.881,2.314,48N,363334.227,143631.530,24,00,4,0,,1.4*19
$GPGGA,125606.60,0117.95060234,N,10346.29601032,E,4,24,0.6,61.193,M,4.598,M,1.6,0014*4C
$PSAT,FVI,125606.60,1.299176706,103.771600172,65.791,0.002,0.003,0.005,,,,,,,-0.01,-0.02,-0.00,0.02,-435.037,747.881,2.315,48N,363334.228,143631.529,24,00,4,0,,1.6*1C
$GPGGA,125606.80,0117.95060237,N,10346.29601051,E,4,24,0.6,61.196,M,4.598,M,1.8,0014*4F
$PSAT,FVI,125606.80,1.299176706,103.771600175,65.794,0.002,0.003,0.005,,,,,,,0.00,-0.01,0.02,0.01,-435.036,747.881,2.318,48N,363334.228,143631.529,24,00,4,0,,1.8*11
$GPGGA,125607.00,0117.95060326,N,10346.29601001,E,4,24,0.6,61.199,M,4.598,M,1.0,0014*45
$PSAT,FVI,125607.00,1.299176721,103.771600167,65.797,0.002,0.003,0.005,,,,,,,-0.00,0.04,0.03,0.04,-435.037,747.882,2.321,48N,363334.227,143631.530,24,00,4,0,,1.0*1B
$GPGGA,125607.20,0117.95060287,N,10346.29600990,E,4,24,0.6,61.196,M,4.598,M,1.2,0014*40
$PSAT,FVI,125607.20,1.299176715,103.771600165,65.794,0.002,0.003,0.005,,,,,,,0.00,0.01,0.00,0.01,-435.037,747.882,2.318,48N,363334.227,143631.530,24,00,4,0,,1.2*39
$GPGGA,125607.40,0117.95060271,N,10346.29600980,E,4,24,0.6,61.196,M,4.598,M,1.4,0014*48
$PSAT,FVI,125607.40,1.299176712,103.771600163,65.794,0.002,0.003,0.005,,,,,,,0.02,-0.01,0.01,0.02,-435.037,747.881,2.318,48N,363334.227,143631.529,24,00,4,0,,1.4*1E
$GPGGA,125607.60,0117.95060286,N,10346.29600924,E,4,24,0.6,61.194,M,4.598,M,1.6,0014*4C
$PSAT,FVI,125607.60,1.299176714,103.771600154,65.792,0.002,0.003,0.005,,,,,,,-0.03,-0.00,-0.00,0.03,-435.039,747.882,2.317,48N,363334.226,143631.530,24,00,4,0,,1.6*11
$GPGGA,125607.80,0117.95060255,N,10346.29600890,E,4,24,0.6,61.193,M,4.598,M,1.8,0014*4B
$PSAT,FVI,125607.80,1.299176709,103.771600148,65.791,0.002,0.003,0.005,,,,,,,-0.02,0.01,-0.02,0.02,-435.039,747.881,2.315,48N,363334.225,143631.529,24,00,4,0,,1.8*37
$GPGGA,125608.00,0117.95060319,N,10346.29600881,E,4,24,0.6,61.193,M,4.598,M,2.0,0014*4E
$PSAT,FVI,125608.00,1.299176720,103.771600147,65.791,0.002,0.003,0.005,,,,,,,-0.03,-0.00,-0.02,0.03,-435.039,747.882,2.315,48N,363334.225,143631.530,24,00,4,0,,2.0*18
$GPGGA,125608.20,0117.95060317,N,10346.29600945,E,4,24,0.6,61.192,M,4.598,M,1.2,0014*4B
$PSAT,FVI,125608.20,1.299176719,103.771600158,65.790,0.002,0.003,0.005,,,,,,,-0.00,0.01,-0.01,0.01,-435.038,747.882,2.314,48N,363334.226,143631.530,24,00,4,0,,1.2*33
$GPGGA,125608.40,0117.95060284,N,10346.29600978,E,4,24,0.6,61.192,M,4.598,M,1.4,0014*4E
$PSAT,FVI,125608.40,1.299176714,103.771600163,65.790,0.002,0.003,0.005,,,,,,,-0.01,-0.03,0.01,0.04,-435.038,747.882,2.315,48N,363334.227,143631.530,24,00,4,0,,1.4*30
$GPGGA,125608.60,0117.95060253,N,10346.29601020,E,4,24,0.6,61.191,M,4.598,M,1.6,0014*42
$PSAT,FVI,125608.60,1.299176709,103.771600170,65.789,0.002,0.003,0.005,,,,,,,-0.01,0.03,-0.02,0.03,-435.037,747.881,2.313,48N,363334.227,143631.529,24,00,4,0,,1.6*30
$GPGGA,125608.80,0117.95060265,N,10346.29601006,E,4,24,0.6,61.192,M,4.598,M,1.8,0014*40
$PSAT,FVI,125608.80,1.299176711,103.771600168,65.790,0.002,0.003,0.005,,,,,,,-0.00,0.00,0.01,0.01,-435.037,747.881,2.314,48N,363334.227,143631.529,24,00,4,0,,1.8*11
$GPGGA,125609.00,0117.95060254,N,10346.29600970,E,4,24,0.6,61.189,M,4.598,M,2.0,0014*43
$PSAT,FVI,125609.00,1.299176709,103.771600162,65.787,0.002,0.003,0.005,,,,,,,0.01,0.01,-0.00,0.01,-435.038,747.881,2.311,48N,363334.226,143631.529,24,00,4,0,,2.0*1C$GPGGA,125609.20,0117.95060183,N,10346.29600968,E,4,24,0.6,61.188,M,4.598,M,1.2,0014*41
$PSAT,FVI,125609.20,1.299176697,103.771600161,65.786,0.002,0.003,0.005,,,,,,,0.04,-0.00,-0.00,0.04,-435.038,747.880,2.310,48N,363334.226,143631.528,24,00,4,0,,1.2*36
$GPGGA,125609.40,0117.95060194,N,10346.29600971,E,4,24,0.6,61.191,M,4.598,M,1.4,0014*47
$PSAT,FVI,125609.40,1.299176699,103.771600162,65.788,0.002,0.003,0.005,,,,,,,0.00,-0.00,0.02,0.00,-435.038,747.880,2.313,48N,363334.226,143631.528,24,00,4,0,,1.4*19
$GPGGA,125609.60,0117.95060191,N,10346.29600924,E,4,24,0.6,61.190,M,4.598,M,1.6,0014*43
$PSAT,FVI,125609.60,1.299176698,103.771600154,65.788,0.002,0.003,0.005,,,,,,,-0.01,-0.00,0.01,0.01,-435.039,747.880,2.313,48N,363334.226,143631.528,24,00,4,0,,1.6*32
$GPGGA,125609.80,0117.95060130,N,10346.29600960,E,4,24,0.6,61.193,M,4.598,M,1.8,0014*4B
$PSAT,FVI,125609.80,1.299176688,103.771600160,65.791,0.002,0.003,0.005,,,,,,,-0.01,-0.00,0.02,0.01,-435.038,747.879,2.315,48N,363334.226,143631.527,24,00,4,0,,1.8*31
$GPGGA,125610.00,0117.95060185,N,10346.29600918,E,4,24,0.6,61.194,M,4.598,M,1.0,0014*45
$PSAT,FVI,125610.00,1.299176697,103.771600153,65.792,0.002,0.003,0.005,,,,,,,0.03,0.01,0.03,0.03,-435.039,747.880,2.317,48N,363334.226,143631.528,24,00,4,0,,1.0*3E
$GPGGA,125610.20,0117.95060097,N,10346.29600966,E,4,24,0.6,61.193,M,4.598,M,1.2,0014*49
$PSAT,FVI,125610.20,1.299176683,103.771600161,65.791,0.002,0.003,0.005,,,,,,,-0.01,0.03,0.03,0.03,-435.038,747.878,2.315,48N,363334.226,143631.526,24,00,4,0,,1.2*1E$GPGGA,125610.40,0117.95060040,N,10346.29600946,E,4,24,0.6,61.189,M,4.598,M,1.4,0014*4A
$PSAT,FVI,125610.40,1.299176673,103.771600158,65.787,0.002,0.003,0.005,,,,,,,0.01,-0.02,0.01,0.02,-435.038,747.877,2.311,48N,363334.226,143631.525,24,00,4,0,,1.4*16$GPGGA,125610.60,0117.95060105,N,10346.29600908,E,4,24,0.6,61.187,M,4.598,M,1.6,0014*4E
$PSAT,FVI,125610.60,1.299176684,103.771600151,65.785,0.002,0.003,0.005,,,,,,,-0.02,0.03,0.00,0.04,-435.039,747.878,2.309,48N,363334.225,143631.526,24,00,4,0,,1.6*17
$GPGGA,125610.80,0117.95060076,N,10346.29600862,E,4,24,0.6,61.186,M,4.598,M,1.8,0014*47
$PSAT,FVI,125610.80,1.299176679,103.771600144,65.784,0.002,0.003,0.005,,,,,,,-0.00,0.00,0.01,0.01,-435.040,747.878,2.308,48N,363334.224,143631.526,24,00,4,0,,1.8*1B
$GPGGA,125611.00,0117.95060111,N,10346.29600855,E,4,24,0.6,61.184,M,4.598,M,2.0,0014*43
$PSAT,FVI,125611.00,1.299176685,103.771600142,65.782,0.002,0.003,0.005,,,,,,,-0.00,0.00,0.00,0.00,-435.040,747.878,2.307,48N,363334.224,143631.526,24,00,4,0,,2.0*15
$GPGGA,125611.20,0117.95060053,N,10346.29600932,E,4,24,0.6,61.181,M,4.598,M,1.2,0014*42
$PSAT,FVI,125611.20,1.299176675,103.771600155,65.779,0.002,0.003,0.005,,,,,,,-0.02,0.01,-0.02,0.02,-435.038,747.877,2.304,48N,363334.226,143631.525,24,00,4,0,,1.2*37
$GPGGA,125611.40,0117.95060011,N,10346.29600987,E,4,24,0.6,61.182,M,4.598,M,1.4,0014*49
$PSAT,FVI,125611.40,1.299176668,103.771600165,65.779,0.002,0.003,0.005,,,,,,,0.01,-0.01,0.01,0.02,-435.037,747.877,2.304,48N,363334.227,143631.525,24,00,4,0,,1.4*1B
$GPGGA,125611.60,0117.95060070,N,10346.29601016,E,4,24,0.6,61.181,M,4.598,M,1.6,0014*4D
$PSAT,FVI,125611.60,1.299176678,103.771600169,65.779,0.002,0.003,0.005,,,,,,,-0.01,0.01,0.02,0.02,-435.037,747.878,2.303,48N,363334.227,143631.526,24,00,4,0,,1.6*1E
$GPGGA,125611.80,0117.95059966,N,10346.29601004,E,4,24,0.6,61.176,M,4.598,M,1.8,0014*42
$PSAT,FVI,125611.80,1.299176661,103.771600167,65.774,0.002,0.003,0.005,,,,,,,-0.02,-0.02,-0.00,0.03,-435.037,747.876,2.299,48N,363334.227,143631.524,24,00,4,0,,1.8*18
$GPGGA,125612.00,0117.95059924,N,10346.29601049,E,4,24,0.6,61.177,M,4.598,M,1.0,0014*4F
$PSAT,FVI,125612.00,1.299176654,103.771600175,65.775,0.002,0.003,0.005,,,,,,,0.02,-0.00,0.00,0.02,-435.036,747.875,2.300,48N,363334.228,143631.523,24,00,4,0,,1.0*17
$GPGGA,125612.20,0117.95060013,N,10346.29600968,E,4,24,0.6,61.181,M,4.598,M,1.2,0014*4A
$PSAT,FVI,125612.20,1.299176669,103.771600161,65.779,0.002,0.003,0.005,,,,,,,-0.01,0.02,0.01,0.02,-435.038,747.877,2.303,48N,363334.226,143631.525,24,00,4,0,,1.2*17$GPGGA,125612.40,0117.95060049,N,10346.29601046,E,4,24,0.6,61.183,M,4.598,M,1.4,0014*43
$PSAT,FVI,125612.40,1.299176675,103.771600174,65.780,0.002,0.003,0.005,,,,,,,0.00,-0.01,0.01,0.01,-435.036,747.877,2.305,48N,363334.228,143631.525,24,00,4,0,,1.4*1F
$GPGGA,125612.60,0117.95060095,N,10346.29601081,E,4,24,0.6,61.182,M,4.598,M,1.6,0014*48
$PSAT,FVI,125612.60,1.299176682,103.771600180,65.780,0.002,0.003,0.005,,,,,,,0.00,-0.00,-0.02,0.00,-435.036,747.878,2.304,48N,363334.229,143631.526,24,00,4,0,,1.6*3E
$GPGGA,125612.80,0117.95060039,N,10346.29601104,E,4,24,0.6,61.184,M,4.598,M,1.8,0014*44
$PSAT,FVI,125612.80,1.299176673,103.771600184,65.781,0.002,0.003,0.005,,,,,,,0.01,0.03,0.01,0.03,-435.035,747.877,2.306,48N,363334.229,143631.525,24,00,4,0,,1.8*3A
$GPGGA,125613.00,0117.95060132,N,10346.29601087,E,4,24,0.6,61.188,M,4.598,M,1.0,0014*49
$PSAT,FVI,125613.00,1.299176689,103.771600181,65.786,0.002,0.003,0.005,,,,,,,-0.01,-0.02,0.02,0.02,-435.035,747.879,2.310,48N,363334.229,143631.527,24,00,4,0,,1.0*34
$GPGGA,125613.20,0117.95060128,N,10346.29601075,E,4,24,0.6,61.190,M,4.598,M,1.2,0014*46
$PSAT,FVI,125613.20,1.299176688,103.771600179,65.788,0.002,0.003,0.005,,,,,,,0.04,-0.01,0.00,0.04,-435.036,747.879,2.313,48N,363334.228,143631.527,24,00,4,0,,1.2*12
$GPGGA,125613.40,0117.95060129,N,10346.29601068,E,4,24,0.6,61.191,M,4.598,M,1.4,0014*4A
$PSAT,FVI,125613.40,1.299176688,103.771600178,65.789,0.002,0.003,0.005,,,,,,,-0.00,-0.02,-0.01,0.02,-435.036,747.879,2.313,48N,363334.228,143631.527,24,00,4,0,,1.4*12
$GPGGA,125613.60,0117.95060168,N,10346.29601001,E,4,24,0.6,61.192,M,4.598,M,1.6,0014*43
$PSAT,FVI,125613.60,1.299176695,103.771600167,65.790,0.002,0.003,0.005,,,,,,,0.01,0.02,0.02,0.03,-435.037,747.879,2.314,48N,363334.227,143631.528,24,00,4,0,,1.6*30
$GPGGA,125613.80,0117.95060133,N,10346.29601005,E,4,24,0.6,61.192,M,4.598,M,1.8,0014*49
$PSAT,FVI,125613.80,1.299176689,103.771600168,65.789,0.002,0.003,0.005,,,,,,,0.00,-0.02,-0.01,0.02,-435.037,747.879,2.314,48N,363334.227,143631.527,24,00,4,0,,1.8*36
$GPGGA,125614.00,0117.95060097,N,10346.29600917,E,4,24,0.6,61.189,M,4.598,M,1.0,0014*40
$PSAT,FVI,125614.00,1.299176683,103.771600153,65.787,0.002,0.003,0.005,,,,,,,-0.02,0.02,-0.01,0.02,-435.039,747.878,2.311,48N,363334.226,143631.526,24,00,4,0,,1.0*35
$GPGGA,125614.20,0117.95060110,N,10346.29600977,E,4,24,0.6,61.190,M,4.598,M,1.2,0014*40
$PSAT,FVI,125614.20,1.299176685,103.771600163,65.788,0.002,0.003,0.005,,,,,,,-0.00,0.05,0.02,0.05,-435.038,747.878,2.313,48N,363334.227,143631.526,24,00,4,0,,1.2*11
$GPGGA,125614.40,0117.95060132,N,10346.29600926,E,4,24,0.6,61.188,M,4.598,M,1.4,0014*4D
$PSAT,FVI,125614.40,1.299176689,103.771600154,65.786,0.002,0.003,0.005,,,,,,,0.02,-0.00,0.00,0.02,-435.038,747.879,2.311,48N,363334.226,143631.527,24,00,4,0,,1.4*16
$GPGGA,125614.60,0117.95060052,N,10346.29600973,E,4,24,0.6,61.187,M,4.598,M,1.6,0014*45
$PSAT,FVI,125614.60,1.299176675,103.771600162,65.785,0.002,0.003,0.005,,,,,,,0.00,-0.03,-0.01,0.03,-435.038,747.877,2.309,48N,363334.227,143631.525,24,00,4,0,,1.6*3B
$GPGGA,125614.80,0117.95060035,N,10346.29600988,E,4,24,0.6,61.186,M,4.598,M,1.8,0014*41
$PSAT,FVI,125614.80,1.299176673,103.771600165,65.784,0.002,0.003,0.005,,,,,,,0.00,-0.02,-0.00,0.02,-435.037,747.877,2.308,48N,363334.227,143631.525,24,00,4,0,,1.8*34
$GPGGA,125615.00,0117.95060025,N,10346.29600997,E,4,24,0.6,61.187,M,4.598,M,1.0,0014*4E
$PSAT,FVI,125615.00,1.299176671,103.771600166,65.785,0.002,0.003,0.005,,,,,,,0.00,0.00,0.01,0.00,-435.037,747.877,2.309,48N,363334.227,143631.525,24,00,4,0,,1.0*35
$GPGGA,125615.20,0117.95060052,N,10346.29600963,E,4,24,0.6,61.188,M,4.598,M,1.2,0014*4A
$PSAT,FVI,125615.20,1.299176675,103.771600161,65.786,0.002,0.003,0.005,,,,,,,0.00,-0.02,0.01,0.02,-435.038,747.877,2.310,48N,363334.226,143631.525,24,00,4,0,,1.2*1E
$GPGGA,125615.40,0117.95059994,N,10346.29600987,E,4,24,0.6,61.187,M,4.598,M,1.4,0014*46
$PSAT,FVI,125615.40,1.299176666,103.771600164,65.785,0.002,0.003,0.005,,,,,,,0.00,0.00,0.01,0.00,-435.037,747.876,2.309,48N,363334.227,143631.524,24,00,4,0,,1.4*31
$GPGGA,125615.60,0117.95060002,N,10346.29600978,E,4,24,0.6,61.186,M,4.598,M,1.6,0014*4B$PSAT,FVI,125615.60,1.299176667,103.771600163,65.784,0.002,0.003,0.005,,,,,,,-0.01,0.02,0.01,0.02,-435.038,747.876,2.309,48N,363334.227,143631.524,24,00,4,0,,1.6*15
$GPGGA,125615.80,0117.95059977,N,10346.29601019,E,4,24,0.6,61.183,M,4.598,M,1.8,0014*40
$PSAT,FVI,125615.80,1.299176663,103.771600170,65.781,0.002,0.003,0.005,,,,,,,0.01,0.01,-0.00,0.02,-435.037,747.876,2.306,48N,363334.227,143631.524,24,00,4,0,,1.8*14
$GPGGA,125616.00,0117.95059931,N,10346.29601013,E,4,24,0.6,61.181,M,4.598,M,1.0,0014*49
$PSAT,FVI,125616.00,1.299176655,103.771600169,65.779,0.002,0.003,0.005,,,,,,,0.04,-0.01,-0.00,0.04,-435.037,747.875,2.303,48N,363334.227,143631.523,24,00,4,0,,1.0*32
$GPGGA,125616.20,0117.95059948,N,10346.29600983,E,4,24,0.6,61.178,M,4.598,M,1.2,0014*40
$PSAT,FVI,125616.20,1.299176658,103.771600164,65.776,0.002,0.003,0.005,,,,,,,-0.04,-0.01,-0.00,0.04,-435.037,747.875,2.300,48N,363334.227,143631.523,24,00,4,0,,1.2*13
$GPGGA,125616.40,0117.95059948,N,10346.29600998,E,4,24,0.6,61.178,M,4.598,M,1.4,0014*4A
$PSAT,FVI,125616.40,1.299176658,103.771600166,65.776,0.002,0.003,0.005,,,,,,,-0.02,0.01,-0.00,0.03,-435.037,747.875,2.300,48N,363334.227,143631.523,24,00,4,0,,1.4*3D
$GPGGA,125616.60,0117.95059957,N,10346.29600976,E,4,24,0.6,61.179,M,4.598,M,1.6,0014*45
$PSAT,FVI,125616.60,1.299176660,103.771600163,65.777,0.002,0.003,0.005,,,,,,,-0.00,-0.01,0.01,0.01,-435.038,747.876,2.301,48N,363334.227,143631.524,24,00,4,0,,1.6*39
$GPGGA,125616.80,0117.95059929,N,10346.29601050,E,4,24,0.6,61.176,M,4.598,M,1.8,0014*4F
$PSAT,FVI,125616.80,1.299176655,103.771600175,65.774,0.002,0.003,0.005,,,,,,,-0.00,-0.02,-0.01,0.02,-435.036,747.875,2.298,48N,363334.228,143631.523,24,00,4,0,,1.8*12
$GPGGA,125617.00,0117.95059943,N,10346.29601070,E,4,24,0.6,61.177,M,4.598,M,2.0,0014*42
$PSAT,FVI,125617.00,1.299176657,103.771600178,65.775,0.002,0.003,0.005,,,,,,,-0.04,0.02,0.00,0.04,-435.036,747.875,2.299,48N,363334.228,143631.523,24,00,4,0,,2.0*1C
$GPGGA,125617.20,0117.95060085,N,10346.29601076,E,4,24,0.6,61.179,M,4.598,M,1.2,0014*40
$PSAT,FVI,125617.20,1.299176681,103.771600179,65.777,0.002,0.003,0.005,,,,,,,0.01,-0.04,0.01,0.04,-435.036,747.878,2.302,48N,363334.228,143631.526,24,00,4,0,,1.2*1E
$GPGGA,125617.40,0117.95060117,N,10346.29601090,E,4,24,0.6,61.184,M,4.598,M,1.4,0014*40
$PSAT,FVI,125617.40,1.299176686,103.771600182,65.782,0.002,0.003,0.005,,,,,,,-0.01,-0.01,0.01,0.01,-435.035,747.879,2.306,48N,363334.229,143631.527,24,00,4,0,,1.4*3C
$GPGGA,125617.60,0117.95060171,N,10346.29601132,E,4,24,0.6,61.184,M,4.598,M,1.6,0014*49
$PSAT,FVI,125617.60,1.299176695,103.771600189,65.782,0.002,0.003,0.005,,,,,,,0.02,0.01,-0.01,0.02,-435.035,747.880,2.306,48N,363334.229,143631.528,24,00,4,0,,1.6*11
$GPGGA,125617.80,0117.95060174,N,10346.29601072,E,4,24,0.6,61.183,M,4.598,M,1.8,0014*4E
$PSAT,FVI,125617.80,1.299176696,103.771600179,65.781,0.002,0.003,0.005,,,,,,,0.01,-0.02,-0.01,0.02,-435.036,747.880,2.305,48N,363334.228,143631.528,24,00,4,0,,1.8*32$GPGGA,125618.00,0117.95060202,N,10346.29600994,E,4,24,0.6,61.184,M,4.598,M,1.0,0014*44
$PSAT,FVI,125618.00,1.299176700,103.771600166,65.782,0.002,0.003,0.005,,,,,,,0.01,-0.00,0.01,0.01,-435.037,747.880,2.307,48N,363334.227,143631.528,24,00,4,0,,1.0*1E
$GPGGA,125618.20,0117.95060184,N,10346.29600957,E,4,24,0.6,61.185,M,4.598,M,1.2,0014*47
$PSAT,FVI,125618.20,1.299176697,103.771600159,65.783,0.002,0.003,0.005,,,,,,,-0.01,-0.02,-0.01,0.02,-435.038,747.880,2.307,48N,363334.226,143631.528,24,00,4,0,,1.2*13
$GPGGA,125618.40,0117.95060168,N,10346.29600982,E,4,24,0.6,61.186,M,4.598,M,1.4,0014*4E
$PSAT,FVI,125618.40,1.299176695,103.771600164,65.784,0.002,0.003,0.005,,,,,,,0.01,-0.02,-0.00,0.02,-435.037,747.879,2.309,48N,363334.227,143631.528,24,00,4,0,,1.4*32
$GPGGA,125618.60,0117.95060135,N,10346.29600945,E,4,24,0.6,61.188,M,4.598,M,1.6,0014*43
$PSAT,FVI,125618.60,1.299176689,103.771600158,65.786,0.002,0.003,0.005,,,,,,,0.01,-0.00,-0.00,0.01,-435.038,747.879,2.310,48N,363334.226,143631.527,24,00,4,0,,1.6*3A
$GPGGA,125618.80,0117.95060188,N,10346.29600903,E,4,24,0.6,61.190,M,4.598,M,1.8,0014*4E
$PSAT,FVI,125618.80,1.299176698,103.771600151,65.788,0.002,0.003,0.005,,,,,,,0.00,-0.00,0.02,0.00,-435.039,747.880,2.312,48N,363334.225,143631.528,24,00,4,0,,1.8*1B
$GPGGA,125619.00,0117.95060134,N,10346.29600900,E,4,24,0.6,61.185,M,4.598,M,1.0,0014*4F
$PSAT,FVI,125619.00,1.299176689,103.771600150,65.783,0.002,0.003,0.005,,,,,,,-0.01,-0.01,-0.02,0.02,-435.039,747.879,2.308,48N,363334.225,143631.527,24,00,4,0,,1.0*10
$GPGGA,125619.20,0117.95060075,N,10346.29600868,E,4,24,0.6,61.187,M,4.598,M,1.2,0014*46
$PSAT,FVI,125619.20,1.299176679,103.771600145,65.785,0.002,0.003,0.005,,,,,,,-0.01,0.01,0.01,0.02,-435.040,747.878,2.310,48N,363334.225,143631.526,24,00,4,0,,1.2*19
$GPGGA,125619.40,0117.95060066,N,10346.29600879,E,4,24,0.6,61.188,M,4.598,M,1.4,0014*4B
$PSAT,FVI,125619.40,1.299176678,103.771600146,65.786,0.002,0.003,0.005,,,,,,,-0.02,-0.02,-0.01,0.02,-435.039,747.878,2.311,48N,363334.225,143631.526,24,00,4,0,,1.4*17
$GPGGA,125619.60,0117.95060050,N,10346.29600891,E,4,24,0.6,61.192,M,4.598,M,1.6,0014*43
$PSAT,FVI,125619.60,1.299176675,103.771600148,65.790,0.002,0.003,0.005,,,,,,,0.02,-0.02,0.00,0.03,-435.039,747.877,2.314,48N,363334.225,143631.525,24,00,4,0,,1.6*1A
$GPGGA,125619.80,0117.95060080,N,10346.29600896,E,4,24,0.6,61.194,M,4.598,M,1.8,0014*4F
$PSAT,FVI,125619.80,1.299176680,103.771600149,65.792,0.002,0.003,0.005,,,,,,,-0.03,0.02,0.01,0.03,-435.039,747.878,2.317,48N,363334.225,143631.526,24,00,4,0,,1.8*1C
$GPGGA,125620.00,0117.95060110,N,10346.29600901,E,4,24,0.6,61.197,M,4.598,M,1.0,0014*41
$PSAT,FVI,125620.00,1.299176685,103.771600150,65.795,0.002,0.003,0.005,,,,,,,0.02,-0.02,0.01,0.03,-435.039,747.878,2.319,48N,363334.225,143631.526,24,00,4,0,,1.0*13
$GPGGA,125620.20,0117.95060150,N,10346.29600923,E,4,24,0.6,61.194,M,4.598,M,1.2,0014*46
$PSAT,FVI,125620.20,1.299176692,103.771600154,65.792,0.002,0.003,0.005,,,,,,,0.02,-0.02,-0.01,0.03,-435.039,747.879,2.317,48N,363334.226,143631.527,24,00,4,0,,1.2*36
$GPGGA,125620.40,0117.95060142,N,10346.29600943,E,4,24,0.6,61.192,M,4.598,M,1.4,0014*45
$PSAT,FVI,125620.40,1.299176690,103.771600157,65.789,0.002,0.003,0.005,,,,,,,0.01,-0.02,0.01,0.02,-435.038,747.879,2.314,48N,363334.226,143631.527,24,00,4,0,,1.4*10
$GPGGA,125620.60,0117.95060087,N,10346.29600942,E,4,24,0.6,61.193,M,4.598,M,1.6,0014*4D
$PSAT,FVI,125620.60,1.299176681,103.771600157,65.791,0.002,0.003,0.005,,,,,,,0.01,-0.01,0.00,0.02,-435.038,747.878,2.315,48N,363334.226,143631.526,24,00,4,0,,1.6*1A$GPGGA,125620.80,0117.95060145,N,10346.29600920,E,4,24,0.6,61.194,M,4.598,M,1.8,0014*41
$PSAT,FVI,125620.80,1.299176691,103.771600153,65.791,0.002,0.003,0.005,,,,,,,0.01,0.00,0.00,0.01,-435.039,747.879,2.316,48N,363334.226,143631.527,24,00,4,0,,1.8*32
$GPGGA,125621.00,0117.95060182,N,10346.29600946,E,4,24,0.6,61.190,M,4.598,M,1.0,0014*4F
$PSAT,FVI,125621.00,1.299176697,103.771600158,65.788,0.002,0.003,0.005,,,,,,,-0.00,0.00,-0.01,0.01,-435.038,747.880,2.313,48N,363334.226,143631.528,24,00,4,0,,1.0*3B
$GPGGA,125621.20,0117.95060185,N,10346.29601006,E,4,24,0.6,61.191,M,4.598,M,1.2,0014*45
$PSAT,FVI,125621.20,1.299176698,103.771600168,65.789,0.002,0.003,0.005,,,,,,,0.03,0.01,0.01,0.03,-435.037,747.880,2.313,48N,363334.227,143631.528,24,00,4,0,,1.2*38
$GPGGA,125621.40,0117.95060223,N,10346.29601009,E,4,24,0.6,61.192,M,4.598,M,1.4,0014*46
$PSAT,FVI,125621.40,1.299176704,103.771600168,65.789,0.002,0.003,0.005,,,,,,,-0.01,0.04,0.01,0.04,-435.037,747.880,2.314,48N,363334.227,143631.529,24,00,4,0,,1.4*17$GPGGA,125621.60,0117.95060212,N,10346.29601027,E,4,24,0.6,61.192,M,4.598,M,1.6,0014*48
$PSAT,FVI,125621.60,1.299176702,103.771600171,65.790,0.002,0.003,0.005,,,,,,,0.01,0.00,-0.01,0.01,-435.037,747.880,2.314,48N,363334.228,143631.528,24,00,4,0,,1.6*1E
$GPGGA,125621.80,0117.95060231,N,10346.29601057,E,4,24,0.6,61.190,M,4.598,M,1.8,0014*4C$PSAT,FVI,125621.80,1.299176705,103.771600176,65.788,0.002,0.003,0.005,,,,,,,-0.00,-0.00,-0.01,0.00,-435.036,747.881,2.313,48N,363334.228,143631.529,24,00,4,0,,1.8*11
$GPGGA,125622.00,0117.95060155,N,10346.29601117,E,4,24,0.6,61.188,M,4.598,M,1.0,0014*42
$PSAT,FVI,125622.00,1.299176693,103.771600186,65.786,0.002,0.003,0.005,,,,,,,0.01,-0.02,-0.01,0.02,-435.035,747.879,2.310,48N,363334.229,143631.527,24,00,4,0,,1.0*39
$GPGGA,125622.20,0117.95060211,N,10346.29601116,E,4,24,0.6,61.186,M,4.598,M,1.2,0014*4E
$PSAT,FVI,125622.20,1.299176702,103.771600186,65.784,0.002,0.003,0.005,,,,,,,0.03,-0.00,-0.01,0.03,-435.035,747.880,2.308,48N,363334.229,143631.528,24,00,4,0,,1.2*33
$GPGGA,125622.40,0117.95060178,N,10346.29601112,E,4,24,0.6,61.184,M,4.598,M,1.4,0014*44
$PSAT,FVI,125622.40,1.299176696,103.771600185,65.782,0.002,0.003,0.005,,,,,,,-0.02,0.01,-0.01,0.02,-435.035,747.880,2.307,48N,363334.229,143631.528,24,00,4,0,,1.4*34
$GPGGA,125622.60,0117.95060234,N,10346.29601122,E,4,24,0.6,61.185,M,4.598,M,1.6,0014*4D
$PSAT,FVI,125622.60,1.299176706,103.771600187,65.783,0.002,0.003,0.005,,,,,,,0.02,0.00,0.01,0.02,-435.035,747.881,2.307,48N,363334.229,143631.529,24,00,4,0,,1.6*3E
$GPGGA,125622.80,0117.95060155,N,10346.29601094,E,4,24,0.6,61.185,M,4.598,M,0.8,0014*44
$PSAT,FVI,125622.80,1.299176693,103.771600182,65.783,0.002,0.003,0.005,,,,,,,0.01,-0.02,0.01,0.03,-435.035,747.879,2.308,48N,363334.229,143631.527,24,00,4,0,,0.8*1C
$GPGGA,125623.00,0117.95060152,N,10346.29600999,E,4,24,0.6,61.186,M,4.598,M,1.0,0014*45
$PSAT,FVI,125623.00,1.299176692,103.771600166,65.784,0.002,0.003,0.005,,,,,,,0.01,-0.01,-0.01,0.02,-435.037,747.879,2.309,48N,363334.227,143631.527,24,00,4,0,,1.0*32
$GPGGA,125623.20,0117.95060137,N,10346.29600923,E,4,24,0.6,61.190,M,4.598,M,1.2,0014*40
$PSAT,FVI,125623.20,1.299176689,103.771600154,65.788,0.002,0.003,0.005,,,,,,,-0.06,0.06,0.01,0.08,-435.039,747.879,2.312,48N,363334.226,143631.527,24,00,4,0,,1.2*17
$GPGGA,125623.40,0117.95060166,N,10346.29600870,E,4,24,0.6,61.191,M,4.598,M,1.4,0014*42
$PSAT,FVI,125623.40,1.299176694,103.771600145,65.789,0.002,0.003,0.005,,,,,,,-0.01,-0.01,0.02,0.02,-435.040,747.879,2.313,48N,363334.225,143631.528,24,00,4,0,,1.4*3D$GPGGA,125623.60,0117.95060114,N,10346.29600901,E,4,24,0.6,61.191,M,4.598,M,1.6,0014*40
$PSAT,FVI,125623.60,1.299176686,103.771600150,65.789,0.002,0.003,0.005,,,,,,,0.00,-0.02,0.02,0.02,-435.039,747.878,2.313,48N,363334.225,143631.527,24,00,4,0,,1.6*15
$GPGGA,125623.80,0117.95060201,N,10346.29600888,E,4,24,0.6,61.192,M,4.598,M,1.8,0014*44
$PSAT,FVI,125623.80,1.299176700,103.771600148,65.790,0.002,0.003,0.005,,,,,,,-0.01,0.02,-0.00,0.03,-435.039,747.880,2.314,48N,363334.225,143631.528,24,00,4,0,,1.8*3B$GPGGA,125624.00,0117.95060221,N,10346.29600897,E,4,24,0.6,61.190,M,4.598,M,2.0,0014*4E
$PSAT,FVI,125624.00,1.299176703,103.771600150,65.788,0.002,0.003,0.005,,,,,,,0.00,-0.01,-0.00,0.01,-435.039,747.880,2.312,48N,363334.225,143631.529,24,00,4,0,,2.0*3B
$GPGGA,125624.20,0117.95060119,N,10346.29600941,E,4,24,0.6,61.188,M,4.598,M,1.2,0014*46
$PSAT,FVI,125624.20,1.299176686,103.771600157,65.786,0.002,0.003,0.005,,,,,,,-0.01,0.04,-0.01,0.04,-435.038,747.879,2.310,48N,363334.226,143631.527,24,00,4,0,,1.2*35
$GPGGA,125624.40,0117.95060103,N,10346.29600866,E,4,24,0.6,61.186,M,4.598,M,1.4,0014*47
$PSAT,FVI,125624.40,1.299176684,103.771600144,65.784,0.002,0.003,0.005,,,,,,,0.02,0.02,-0.01,0.03,-435.040,747.878,2.308,48N,363334.225,143631.526,24,00,4,0,,1.4*1D
$GPGGA,125624.60,0117.95059981,N,10346.29600974,E,4,24,0.6,61.185,M,4.598,M,1.6,0014*4E
$PSAT,FVI,125624.60,1.299176663,103.771600162,65.783,0.002,0.003,0.005,,,,,,,-0.00,-0.04,0.03,0.04,-435.038,747.876,2.308,48N,363334.227,143631.524,24,00,4,0,,1.6*3A$GPGGA,125624.80,0117.95059995,N,10346.29601062,E,4,24,0.6,61.184,M,4.598,M,1.8,0014*45
$PSAT,FVI,125624.80,1.299176666,103.771600177,65.782,0.002,0.003,0.005,,,,,,,-0.02,-0.02,0.00,0.03,-435.036,747.876,2.306,48N,363334.228,143631.524,24,00,4,0,,1.8*35
$GPGGA,125625.00,0117.95060014,N,10346.29600987,E,4,24,0.6,61.184,M,4.598,M,2.0,0014*4E
$PSAT,FVI,125625.00,1.299176669,103.771600164,65.782,0.002,0.003,0.005,,,,,,,-0.01,-0.01,0.01,0.01,-435.037,747.877,2.307,48N,363334.227,143631.525,24,00,4,0,,2.0*36
$GPGGA,125625.20,0117.95059826,N,10346.29601198,E,4,24,0.6,61.187,M,4.598,M,1.2,0014*4A
$PSAT,FVI,125625.20,1.299176638,103.771600200,65.785,0.002,0.003,0.005,,,,,,,0.00,-0.04,0.03,0.04,-435.033,747.873,2.310,48N,363334.231,143631.521,24,00,4,0,,1.2*1C
$GPGGA,125625.40,0117.95059800,N,10346.29601257,E,4,24,0.6,61.188,M,4.598,M,1.4,0014*41
$PSAT,FVI,125625.40,1.299176633,103.771600210,65.786,0.002,0.003,0.005,,,,,,,-0.03,0.03,-0.01,0.04,-435.032,747.873,2.311,48N,363334.232,143631.521,24,00,4,0,,1.4*3D
$GPGGA,125625.60,0117.95059825,N,10346.29601265,E,4,24,0.6,61.188,M,4.598,M,1.6,0014*47
$PSAT,FVI,125625.60,1.299176638,103.771600211,65.786,0.002,0.003,0.005,,,,,,,0.02,0.04,0.00,0.04,-435.032,747.873,2.311,48N,363334.232,143631.521,24,00,4,0,,1.6*30$GPGGA,125625.80,0117.95060007,N,10346.29601192,E,4,24,0.6,61.192,M,4.598,M,1.8,0014*45
$PSAT,FVI,125625.80,1.299176668,103.771600199,65.790,0.002,0.003,0.005,,,,,,,-0.01,0.02,0.02,0.03,-435.034,747.876,2.314,48N,363334.231,143631.525,24,00,4,0,,1.8*1D$GPGGA,125626.00,0117.95059795,N,10346.29600983,E,4,24,0.6,61.190,M,4.598,M,2.0,0014*48
$PSAT,FVI,125626.00,1.299176633,103.771600164,65.788,0.002,0.003,0.005,,,,,,,-0.07,-0.00,-0.01,0.07,-435.037,747.873,2.312,48N,363334.227,143631.521,24,00,4,0,,2.0*18
$GPGGA,125626.20,0117.95059586,N,10346.29601021,E,4,24,0.6,61.193,M,4.598,M,1.2,0014*48
$PSAT,FVI,125626.20,1.299176598,103.771600170,65.791,0.002,0.003,0.005,,,,,,,0.01,-0.01,0.01,0.02,-435.037,747.869,2.315,48N,363334.227,143631.517,24,00,4,0,,1.2*1F
$GPGGA,125626.40,0117.95059722,N,10346.29601300,E,4,24,0.6,61.197,M,4.598,M,1.4,0014*40
$PSAT,FVI,125626.40,1.299176620,103.771600217,65.794,0.002,0.003,0.005,,,,,,,0.04,0.06,0.02,0.08,-435.032,747.871,2.319,48N,363334.233,143631.519,24,00,4,0,,1.4*35
$GPGGA,125626.60,0117.95059800,N,10346.29601259,E,4,24,0.6,61.191,M,4.598,M,1.6,0014*44
$PSAT,FVI,125626.60,1.299176633,103.771600210,65.789,0.002,0.003,0.005,,,,,,,0.09,-0.06,-0.02,0.11,-435.032,747.873,2.313,48N,363334.232,143631.521,24,00,4,0,,1.6*3B
$GPGGA,125626.80,0117.95059780,N,10346.29600695,E,4,24,0.6,61.198,M,4.598,M,1.8,0014*4F
$PSAT,FVI,125626.80,1.299176630,103.771600116,65.796,0.002,0.003,0.005,,,,,,,-0.05,-0.05,0.03,0.07,-435.043,747.872,2.321,48N,363334.221,143631.520,24,00,4,0,,1.8*3F$GPGGA,125627.00,0117.95059730,N,10346.29600678,E,4,24,0.6,61.195,M,4.598,M,2.0,0014*48$PSAT,FVI,125627.00,1.299176622,103.771600113,65.793,0.002,0.003,0.005,,,,,,,0.07,-0.02,-0.02,0.08,-435.043,747.871,2.317,48N,363334.221,143631.519,24,00,4,0,,2.0*39
$GPGGA,125627.20,0117.95059522,N,10346.29601553,E,4,24,0.6,61.185,M,4.598,M,2.2,0014*43
$PSAT,FVI,125627.20,1.299176587,103.771600259,65.783,0.002,0.003,0.005,,,,,,,0.07,-0.06,-0.01,0.09,-435.027,747.868,2.308,48N,363334.237,143631.516,24,00,4,0,,2.2*33
$GPGGA,125627.40,0117.95059785,N,10346.29601140,E,4,24,0.6,61.193,M,4.598,M,1.4,0014*4E
$PSAT,FVI,125627.40,1.299176631,103.771600190,65.791,0.002,0.003,0.005,,,,,,,-0.04,0.06,0.02,0.08,-435.035,747.872,2.315,48N,363334.230,143631.520,24,00,4,0,,1.4*11$GPGGA,125627.60,0117.95060131,N,10346.29600928,E,4,24,0.6,61.195,M,4.598,M,1.6,0014*4C
$PSAT,FVI,125627.60,1.299176689,103.771600155,65.793,0.002,0.003,0.005,,,,,,,-0.01,-0.02,0.02,0.03,-435.038,747.879,2.317,48N,363334.226,143631.527,24,00,4,0,,1.6*3A
$GPGGA,125627.80,0117.95060180,N,10346.29600692,E,4,24,0.6,61.201,M,4.598,M,1.8,0014*46
$PSAT,FVI,125627.80,1.299176697,103.771600115,65.799,0.002,0.003,0.005,,,,,,,0.04,0.03,0.03,0.05,-435.043,747.880,2.324,48N,363334.221,143631.528,24,00,4,0,,1.8*3A
$GPGGA,125628.00,0117.95060207,N,10346.29600894,E,4,24,0.6,61.202,M,4.598,M,1.0,0014*4E
$PSAT,FVI,125628.00,1.299176701,103.771600149,65.800,0.002,0.003,0.005,,,,,,,0.01,0.01,0.04,0.02,-435.039,747.880,2.325,48N,363334.225,143631.528,24,00,4,0,,1.0*32
$GPGGA,125628.20,0117.95060304,N,10346.29600757,E,4,24,0.6,61.206,M,4.598,M,1.2,0014*48
$PSAT,FVI,125628.20,1.299176717,103.771600126,65.804,0.002,0.003,0.005,,,,,,,-0.05,0.05,0.01,0.07,-435.042,747.882,2.329,48N,363334.223,143631.530,24,00,4,0,,1.2*18
$GPGGA,125628.40,0117.95060522,N,10346.29600758,E,4,24,0.6,61.207,M,4.598,M,1.4,0014*44
$PSAT,FVI,125628.40,1.299176754,103.771600126,65.805,0.002,0.003,0.005,,,,,,,0.02,-0.02,0.01,0.03,-435.042,747.886,2.329,48N,363334.223,143631.534,24,00,4,0,,1.4*1A
$GPGGA,125628.60,0117.95060304,N,10346.29600770,E,4,24,0.6,61.205,M,4.598,M,1.6,0014*4E
$PSAT,FVI,125628.60,1.299176717,103.771600128,65.803,0.002,0.003,0.005,,,,,,,-0.01,-0.02,0.00,0.02,-435.041,747.882,2.327,48N,363334.223,143631.530,24,00,4,0,,1.6*36
$GPGGA,125628.80,0117.95060084,N,10346.29600783,E,4,24,0.6,61.202,M,4.598,M,1.8,0014*4E
$PSAT,FVI,125628.80,1.299176681,103.771600130,65.800,0.002,0.003,0.005,,,,,,,-0.03,-0.01,0.02,0.03,-435.041,747.878,2.324,48N,363334.223,143631.526,24,00,4,0,,1.8*31
$GPGGA,125629.00,0117.95060423,N,10346.29600782,E,4,24,0.6,61.205,M,4.598,M,1.0,0014*40
$PSAT,FVI,125629.00,1.299176737,103.771600130,65.803,0.004,0.004,0.008,,,,,,,-0.01,-0.01,0.01,0.01,-435.041,747.884,2.327,48N,363334.223,143631.532,24,00,4,0,,1.0*35
$GPGGA,125629.20,0117.95060326,N,10346.29600864,E,4,24,0.6,61.201,M,4.598,M,1.2,0014*41
$PSAT,FVI,125629.20,1.299176721,103.771600144,65.799,0.004,0.004,0.008,,,,,,,0.02,-0.00,0.01,0.02,-435.040,747.882,2.323,48N,363334.225,143631.530,24,00,4,0,,1.2*16
$GPGGA,125629.40,0117.95060387,N,10346.29600951,E,4,24,0.6,61.203,M,4.598,M,1.4,0014*4F
$PSAT,FVI,125629.40,1.299176731,103.771600159,65.801,0.004,0.004,0.008,,,,,,,0.01,0.00,0.03,0.01,-435.038,747.883,2.325,48N,363334.226,143631.532,24,00,4,0,,1.4*33
$GPGGA,125629.60,0117.95060355,N,10346.29600918,E,4,24,0.6,61.201,M,4.598,M,1.6,0014*4F
$PSAT,FVI,125629.60,1.299176726,103.771600153,65.799,0.004,0.004,0.008,,,,,,,0.03,0.02,0.02,0.04,-435.039,747.883,2.324,48N,363334.226,143631.531,24,00,4,0,,1.6*36
$GPGGA,125629.80,0117.95060256,N,10346.29600854,E,4,24,0.6,61.198,M,4.598,M,1.8,0014*47
$PSAT,FVI,125629.80,1.299176709,103.771600142,65.796,0.004,0.004,0.008,,,,,,,-0.02,-0.01,-0.00,0.02,-435.040,747.881,2.321,48N,363334.224,143631.529,24,00,4,0,,1.8*1D
$GPGGA,125630.00,0117.95060238,N,10346.29600906,E,4,24,0.6,61.192,M,4.598,M,1.0,0014*4B
$PSAT,FVI,125630.00,1.299176706,103.771600151,65.789,0.004,0.004,0.008,,,,,,,-0.00,-0.03,-0.03,0.03,-435.039,747.881,2.314,48N,363334.225,143631.529,24,00,4,0,,1.0*1D
$GPGGA,125630.20,0117.95060093,N,10346.29600788,E,4,23,0.6,61.186,M,4.598,M,1.2,0014*42
$PSAT,FVI,125630.20,1.299176682,103.771600131,65.784,0.004,0.004,0.008,,,,,,,0.02,-0.01,-0.02,0.03,-435.041,747.878,2.308,48N,363334.223,143631.526,23,00,4,0,,1.2*3D
$GPGGA,125630.40,0117.95059953,N,10346.29600843,E,4,23,0.6,61.180,M,4.598,M,1.4,0014*43
$PSAT,FVI,125630.40,1.299176659,103.771600141,65.778,0.004,0.004,0.008,,,,,,,-0.01,-0.03,-0.02,0.03,-435.040,747.875,2.302,48N,363334.224,143631.524,23,00,4,0,,1.4*10
$GPGGA,125630.60,0117.95060067,N,10346.29600857,E,4,23,0.6,61.181,M,4.598,M,1.6,0014*43
$PSAT,FVI,125630.60,1.299176678,103.771600143,65.779,0.004,0.004,0.008,,,,,,,0.02,-0.01,-0.00,0.02,-435.040,747.878,2.303,48N,363334.224,143631.526,23,00,4,0,,1.6*31
$GPGGA,125630.80,0117.95060207,N,10346.29601022,E,4,23,0.6,61.186,M,4.598,M,0.8,0014*4A
$PSAT,FVI,125630.80,1.299176701,103.771600170,65.784,0.004,0.004,0.008,,,,,,,-0.02,0.01,0.02,0.02,-435.037,747.880,2.309,48N,363334.227,143631.528,23,00,4,0,,0.8*12
$GPGGA,125631.00,0117.95060181,N,10346.29601129,E,4,23,0.6,61.190,M,4.598,M,1.0,0014*4A
$PSAT,FVI,125631.00,1.299176697,103.771600188,65.788,0.004,0.004,0.008,,,,,,,0.01,-0.01,0.02,0.01,-435.035,747.880,2.312,48N,363334.229,143631.528,23,00,4,0,,1.0*11
$GPGGA,125631.20,0117.95060072,N,10346.29601034,E,4,23,0.6,61.193,M,4.598,M,1.2,0014*49
$PSAT,FVI,125631.20,1.299176679,103.771600172,65.791,0.004,0.004,0.008,,,,,,,0.04,0.03,0.01,0.05,-435.036,747.878,2.315,48N,363334.228,143631.526,23,00,4,0,,1.2*3D
$GPGGA,125631.40,0117.95060194,N,10346.29601091,E,4,23,0.6,61.190,M,4.598,M,1.4,0014*4C
$PSAT,FVI,125631.40,1.299176699,103.771600182,65.788,0.004,0.004,0.008,,,,,,,-0.04,0.02,-0.01,0.05,-435.035,747.880,2.312,48N,363334.229,143631.528,23,00,4,0,,1.4*39
$GPGGA,125631.60,0117.95060092,N,10346.29601038,E,4,24,0.6,61.192,M,4.598,M,1.6,0014*4D
$PSAT,FVI,125631.60,1.299176682,103.771600173,65.790,0.004,0.004,0.008,,,,,,,0.00,0.04,0.02,0.04,-435.036,747.878,2.314,48N,363334.228,143631.526,24,00,4,0,,1.6*3E
$GPGGA,125631.80,0117.95060069,N,10346.29601051,E,4,24,0.6,61.191,M,4.598,M,1.8,0014*45
$PSAT,FVI,125631.80,1.299176678,103.771600175,65.789,0.003,0.004,0.007,,,,,,,0.04,-0.04,0.00,0.05,-435.036,747.878,2.313,48N,363334.228,143631.526,24,00,4,0,,1.8*10
$GPGGA,125632.00,0117.95060017,N,10346.29601012,E,4,24,0.6,61.191,M,4.598,M,1.0,0014*48
$PSAT,FVI,125632.00,1.299176670,103.771600169,65.789,0.003,0.004,0.007,,,,,,,0.00,-0.01,-0.00,0.01,-435.037,747.877,2.313,48N,363334.227,143631.525,24,00,4,0,,1.0*3C
$GPGGA,125632.20,0117.95060058,N,10346.29600951,E,4,24,0.6,61.191,M,4.598,M,1.2,0014*4C
$PSAT,FVI,125632.20,1.299176676,103.771600159,65.789,0.003,0.004,0.007,,,,,,,0.01,0.01,-0.02,0.01,-435.038,747.877,2.313,48N,363334.226,143631.526,24,00,4,0,,1.2*1A
$GPGGA,125632.40,0117.95059964,N,10346.29600910,E,4,24,0.6,61.195,M,4.598,M,1.4,0014*41
$PSAT,FVI,125632.40,1.299176661,103.771600152,65.793,0.003,0.004,0.007,,,,,,,0.05,-0.03,-0.00,0.06,-435.039,747.876,2.318,48N,363334.225,143631.524,24,00,4,0,,1.4*38
$GPGGA,125632.60,0117.95060069,N,10346.29600916,E,4,24,0.6,61.201,M,4.598,M,1.6,0014*47
$PSAT,FVI,125632.60,1.299176678,103.771600153,65.799,0.003,0.004,0.007,,,,,,,0.02,-0.01,0.01,0.02,-435.039,747.878,2.323,48N,363334.225,143631.526,24,00,4,0,,1.6*12$GPGGA,125632.80,0117.95060121,N,10346.29601021,E,4,24,0.6,61.202,M,4.598,M,1.8,0014*45
$PSAT,FVI,125632.80,1.299176687,103.771600170,65.800,0.003,0.004,0.007,,,,,,,0.05,-0.03,0.01,0.06,-435.037,747.879,2.324,48N,363334.227,143631.527,24,00,4,0,,1.8*16$GPGGA,125633.00,0117.95060169,N,10346.29601067,E,4,24,0.6,61.202,M,4.598,M,1.0,0014*4A
$PSAT,FVI,125633.00,1.299176695,103.771600178,65.800,0.003,0.004,0.007,,,,,,,-0.00,0.00,0.01,0.01,-435.036,747.879,2.324,48N,363334.228,143631.528,24,00,4,0,,1.0*1C
$GPGGA,125633.20,0117.95060122,N,10346.29601116,E,4,24,0.6,61.202,M,4.598,M,1.2,0014*42
$PSAT,FVI,125633.20,1.299176687,103.771600186,65.799,0.003,0.004,0.007,,,,,,,-0.00,-0.07,-0.00,0.07,-435.035,747.879,2.324,48N,363334.229,143631.527,24,00,4,0,,1.2*1C
$GPGGA,125633.40,0117.95060151,N,10346.29601087,E,4,24,0.6,61.201,M,4.598,M,1.4,0014*4C
$PSAT,FVI,125633.40,1.299176692,103.771600181,65.799,0.003,0.004,0.007,,,,,,,0.00,-0.02,0.01,0.02,-435.035,747.879,2.323,48N,363334.229,143631.527,24,00,4,0,,1.4*19
$GPGGA,125633.60,0117.95060132,N,10346.29601136,E,4,24,0.6,61.206,M,4.598,M,1.6,0014*45
$PSAT,FVI,125633.60,1.299176689,103.771600189,65.804,0.003,0.004,0.007,,,,,,,-0.05,0.01,0.02,0.05,-435.035,747.879,2.329,48N,363334.230,143631.527,24,00,4,0,,1.6*10
$GPGGA,125633.80,0117.95060121,N,10346.29601049,E,4,24,0.6,61.198,M,4.598,M,0.8,0014*4B
$PSAT,FVI,125633.80,1.299176687,103.771600175,65.796,0.003,0.004,0.007,,,,,,,0.02,0.02,-0.04,0.03,-435.036,747.879,2.321,48N,363334.228,143631.527,24,00,4,0,,0.8*1E
$GPGGA,125634.00,0117.95060015,N,10346.29600880,E,4,24,0.6,61.192,M,4.598,M,1.0,0014*4D
